[
{
  "providerId": "010001",
  "name": "SOUTHEAST ALABAMA MEDICAL CENTER",
  "address": "1108 ROSS CLARK CIRCLE",
  "city": "DOTHAN",
  "state": "AL",
  "zipCode": "36301",
  "county": "HOUSTON",
  "phoneNumber": "3347938701",
  "type": "Acute Care Hospitals",
  "ownership": "Government - Hospital District or Authority",
  "emergencyServices": "true",
  "location": {
  "humanAddress": "{\"address\":\"1108 ROSS CLARK CIRCLE\",\"city\":\"DOTHAN\",\"state\":\"AL\",\"zip\":\"36301\"}",
  "latitude": "31.215379379000467",
  "longitude": "-85.36146587999968",
  "needsRecoding": "false"
}},
{
  "providerId": "030036",
  "name": "CHANDLER REGIONAL MEDICAL CENTER",
  "address": "1955 WEST FRYE ROAD",
  "city": "CHANDLER",
  "state": "AZ",
  "zipCode": "85224",
  "county": "MARICOPA",
  "phoneNumber": "4809634561",
  "type": "Acute Care Hospitals",
  "ownership": "Voluntary non-profit - Other",
  "emergencyServices": "true",
  "location": {
  "humanAddress": "{\"address\":\"1955 WEST FRYE ROAD\",\"city\":\"CHANDLER\",\"state\":\"AZ\",\"zip\":\"85224\"}",
  "latitude": "33.29867299900047",
  "longitude": "-111.87516587299967",
  "needsRecoding": "false"
}},
{
  "providerId": "050145",
  "name": "COMMUNITY HOSPITAL OF THE MONTEREY PENINSULA",
  "address": "23625 W R HOLMAN HIGHWAY",
  "city": "MONTEREY",
  "state": "CA",
  "zipCode": "93940",
  "county": "MONTEREY",
  "phoneNumber": "8316245311",
  "type": "Acute Care Hospitals",
  "ownership": "Voluntary non-profit - Private",
  "emergencyServices": "true",
  "location": {
  "humanAddress": "{\"address\":\"23625 W R HOLMAN HIGHWAY\",\"city\":\"MONTEREY\",\"state\":\"CA\",\"zip\":\"93940\"}",
  "latitude": "36.59566735700048",
  "longitude": "-121.87999945099972",
  "needsRecoding": "false"
}},
{
  "providerId": "06005F",
  "name": "VA EASTERN COLORADO HEALTHCARE SYSTEM",
  "address": "1055 CLERMONT STREET",
  "city": "DENVER",
  "state": "CO",
  "zipCode": "80220",
  "county": "DENVER",
  "phoneNumber": "3033932800",
  "type": "ACUTE CARE - VETERANS ADMINISTRATION",
  "ownership": "Government Federal",
  "emergencyServices": "false",
  "location": {
  "humanAddress": "{\"address\":\"1055 CLERMONT STREET\",\"city\":\"DENVER\",\"state\":\"CO\",\"zip\":\"80220\"}",
  "latitude": "39.73108091300048",
  "longitude": "-104.93517664599966",
  "needsRecoding": "false"
}},
{
  "providerId": "100025",
  "name": "SACRED HEART HOSPITAL",
  "address": "5151 N 9TH AVE",
  "city": "PENSACOLA",
  "state": "FL",
  "zipCode": "32504",
  "county": "ESCAMBIA",
  "phoneNumber": "8504167000",
  "type": "Acute Care Hospitals",
  "ownership": "Voluntary non-profit - Other",
  "emergencyServices": "true",
  "location": {
  "humanAddress": "{\"address\":\"5151 N 9TH AVE\",\"city\":\"PENSACOLA\",\"state\":\"FL\",\"zip\":\"32504\"}",
  "latitude": "30.474696235000465",
  "longitude": "-87.21147720299967",
  "needsRecoding": "false"
}},
{
  "providerId": "111327",
  "name": "BACON COUNTY HOSPITAL",
  "address": "302 SOUTH WAYNE STREET",
  "city": "ALMA",
  "state": "GA",
  "zipCode": "31510",
  "county": "BACON",
  "phoneNumber": "9126328961",
  "type": "Critical Access Hospitals",
  "ownership": "Voluntary non-profit - Other",
  "emergencyServices": "true",
  "location": {
  "humanAddress": "{\"address\":\"302 SOUTH WAYNE STREET\",\"city\":\"ALMA\",\"state\":\"GA\",\"zip\":\"31510\"}",
  "latitude": "31.539141912000446",
  "longitude": "-82.45962025099965",
  "needsRecoding": "false"
}},
{
  "providerId": "151304",
  "name": "RUSH MEMORIAL HOSPITAL",
  "address": "1300 N MAIN ST",
  "city": "RUSHVILLE",
  "state": "IN",
  "zipCode": "46173",
  "county": "RUSH",
  "phoneNumber": "7659327513",
  "type": "Critical Access Hospitals",
  "ownership": "Government - Local",
  "emergencyServices": "true",
  "location": {
  "humanAddress": "{\"address\":\"1300 N MAIN ST\",\"city\":\"RUSHVILLE\",\"state\":\"IN\",\"zip\":\"46173\"}",
  "latitude": "39.62143092800045",
  "longitude": "-85.44475493699969",
  "needsRecoding": "false"
}},
{
  "providerId": "180101",
  "name": "GEORGETOWN COMMUNITY HOSPITAL",
  "address": "1140 LEXINGTON ROAD",
  "city": "GEORGETOWN",
  "state": "KY",
  "zipCode": "40324",
  "county": "SCOTT",
  "phoneNumber": "5028681100",
  "type": "Acute Care Hospitals",
  "ownership": "Proprietary",
  "emergencyServices": "true",
  "location": {
  "humanAddress": "{\"address\":\"1140 LEXINGTON ROAD\",\"city\":\"GEORGETOWN\",\"state\":\"KY\",\"zip\":\"40324\"}",
  "latitude": "38.18562441100045",
  "longitude": "-84.56216007199964",
  "needsRecoding": "false"
}},
{
  "providerId": "23037F",
  "name": "DETROIT (JOHN D. DINGELL) VA MEDICAL CENTER",
  "address": "4646 JOHN R.",
  "city": "DETROIT",
  "state": "MI",
  "zipCode": "48201",
  "county": "WAYNE",
  "phoneNumber": "3135761000",
  "type": "ACUTE CARE - VETERANS ADMINISTRATION",
  "ownership": "Government Federal",
  "emergencyServices": "false",
  "location": {
  "humanAddress": "{\"address\":\"4646 JOHN R.\",\"city\":\"DETROIT\",\"state\":\"MI\",\"zip\":\"48201\"}",
  "latitude": "42.35514102200045",
  "longitude": "-83.06034127999965",
  "needsRecoding": "false"
}},
{
  "providerId": "260228",
  "name": "MERCY MCCUNE BROOKS HOSPITAL",
  "address": "3125 DR RUSSELL SMITH WAY",
  "city": "CARTHAGE",
  "state": "MO",
  "zipCode": "64836",
  "county": "JASPER",
  "phoneNumber": "4173588121",
  "type": "Acute Care Hospitals",
  "ownership": "Voluntary non-profit - Church",
  "emergencyServices": "true",
  "location": {
  "humanAddress": "{\"address\":\"3125 DR RUSSELL SMITH WAY\",\"city\":\"CARTHAGE\",\"state\":\"MO\",\"zip\":\"64836\"}",
  "latitude": "37.135866870000484",
  "longitude": "-94.31806813499969",
  "needsRecoding": "false"
}},
{
  "providerId": "330094",
  "name": "COLUMBIA MEMORIAL HOSPITAL",
  "address": "71 PROSPECT AVENUE",
  "city": "HUDSON",
  "state": "NY",
  "zipCode": "12534",
  "county": "COLUMBIA",
  "phoneNumber": "5188287601",
  "type": "Acute Care Hospitals",
  "ownership": "Voluntary non-profit - Private",
  "emergencyServices": "true",
  "location": {
  "humanAddress": "{\"address\":\"71 PROSPECT AVENUE\",\"city\":\"HUDSON\",\"state\":\"NY\",\"zip\":\"12534\"}",
  "latitude": "42.2457965480005",
  "longitude": "-73.77788773299966",
  "needsRecoding": "false"
}},
{
  "providerId": "360276",
  "name": "ST ELIZABETH BOARDMAN HEALTH CENTER",
  "address": "8401 MARKET STREET",
  "city": "BOARDMAN",
  "state": "OH",
  "zipCode": "44512",
  "county": "MAHONING",
  "phoneNumber": "3307292929",
  "type": "Acute Care Hospitals",
  "ownership": "Voluntary non-profit - Church",
  "emergencyServices": "true",
  "location": {
  "humanAddress": "{\"address\":\"8401 MARKET STREET\",\"city\":\"BOARDMAN\",\"state\":\"OH\",\"zip\":\"44512\"}",
  "latitude": "40.994999247000464",
  "longitude": "-80.66270474599963",
  "needsRecoding": "false"
}},
{
  "providerId": "420015",
  "name": "BAPTIST EASLEY HOSPITAL",
  "address": "200 FLEETWOOD DRIVE",
  "city": "EASLEY",
  "state": "SC",
  "zipCode": "29640",
  "county": "PICKENS",
  "phoneNumber": "8644427200",
  "type": "Acute Care Hospitals",
  "ownership": "Voluntary non-profit - Private",
  "emergencyServices": "true",
  "location": {
  "humanAddress": "{\"address\":\"200 FLEETWOOD DRIVE\",\"city\":\"EASLEY\",\"state\":\"SC\",\"zip\":\"29640\"}",
  "latitude": "34.83899493800044",
  "longitude": "-82.60795290799967",
  "needsRecoding": "false"
}},
{
  "providerId": "451343",
  "name": "ELECTRA MEMORIAL HOSPITAL",
  "address": "1207 S BAILEY STREET",
  "city": "ELECTRA",
  "state": "TX",
  "zipCode": "76360",
  "county": "WICHITA",
  "phoneNumber": "9404953981",
  "type": "Critical Access Hospitals",
  "ownership": "Government - Hospital District or Authority",
  "emergencyServices": "true",
  "location": {
  "humanAddress": "{\"address\":\"1207 S BAILEY STREET\",\"city\":\"ELECTRA\",\"state\":\"TX\",\"zip\":\"76360\"}",
  "latitude": "34.01910588000044",
  "longitude": "-98.92399320399966",
  "needsRecoding": "false"
}},
{
  "providerId": "500064",
  "name": "HARBORVIEW MEDICAL CENTER",
  "address": "325 9TH AVENUE",
  "city": "SEATTLE",
  "state": "WA",
  "zipCode": "98104",
  "county": "KING",
  "phoneNumber": "2067313000",
  "type": "Acute Care Hospitals",
  "ownership": "Government - Local",
  "emergencyServices": "true",
  "location": {
  "humanAddress": "{\"address\":\"325 9TH AVENUE\",\"city\":\"SEATTLE\",\"state\":\"WA\",\"zip\":\"98104\"}",
  "latitude": "47.60408674400048",
  "longitude": "-122.32346298499971",
  "needsRecoding": "false"
}},
{
  "providerId": "520008",
  "name": "WAUKESHA MEMORIAL HOSPITAL",
  "address": "725 AMERICAN AVE",
  "city": "WAUKESHA",
  "state": "WI",
  "zipCode": "53188",
  "county": "WAUKESHA",
  "phoneNumber": "2629281000",
  "type": "Acute Care Hospitals",
  "ownership": "Voluntary non-profit - Private",
  "emergencyServices": "true",
  "location": {
  "humanAddress": "{\"address\":\"725 AMERICAN AVE\",\"city\":\"WAUKESHA\",\"state\":\"WI\",\"zip\":\"53188\"}",
  "latitude": "43.01125159700047",
  "longitude": "-88.24309091399965",
  "needsRecoding": "false"
}},
{
  "providerId": "520019",
  "name": "MINISTRY SAINT MARYS HOSPITAL",
  "address": "2251 NORTH SHORE DR",
  "city": "RHINELANDER",
  "state": "WI",
  "zipCode": "54501",
  "county": "ONEIDA",
  "phoneNumber": "7153612000",
  "type": "Acute Care Hospitals",
  "ownership": "Voluntary non-profit - Private",
  "emergencyServices": "true",
  "location": {
  "humanAddress": "{\"address\":\"2251 NORTH SHORE DR\",\"city\":\"RHINELANDER\",\"state\":\"WI\",\"zip\":\"54501\"}",
  "latitude": "45.63714281300048",
  "longitude": "-89.37567057699965",
  "needsRecoding": "false"
}},
{
  "providerId": "520021",
  "name": "UNITED HOSPITAL SYSTEM",
  "address": "6308 EIGHTH AVE",
  "city": "KENOSHA",
  "state": "WI",
  "zipCode": "53143",
  "county": "KENOSHA",
  "phoneNumber": "2626562011",
  "type": "Acute Care Hospitals",
  "ownership": "Government - Local",
  "emergencyServices": "true",
  "location": {
  "humanAddress": "{\"address\":\"6308 EIGHTH AVE\",\"city\":\"KENOSHA\",\"state\":\"WI\",\"zip\":\"53143\"}",
  "latitude": "42.57730917900045",
  "longitude": "-87.81929779399968",
  "needsRecoding": "false"
}},
{
  "providerId": "530010",
  "name": "LANDER REGIONAL HOSPITAL",
  "address": "1320 BISHOP RANDALL DR",
  "city": "LANDER",
  "state": "WY",
  "zipCode": "82520",
  "county": "FREMONT",
  "phoneNumber": "3073324420",
  "type": "Acute Care Hospitals",
  "ownership": "Proprietary",
  "emergencyServices": "true",
  "location": {
  "humanAddress": "{\"address\":\"1320 BISHOP RANDALL DR\",\"city\":\"LANDER\",\"state\":\"WY\",\"zip\":\"82520\"}",
  "latitude": "42.8196467190005",
  "longitude": "-108.72692588699971",
  "needsRecoding": "false"
}},
{
  "providerId": "021304",
  "name": "PETERSBURG MEDICAL CENTER",
  "address": "PO BOX 589",
  "city": "PETERSBURG",
  "state": "AK",
  "zipCode": "99833",
  "phoneNumber": "9077724291",
  "type": "Critical Access Hospitals",
  "ownership": "Government - Local",
  "emergencyServices": "true",
  "location": {
  "humanAddress": "{\"address\":\"PO BOX 589\",\"city\":\"PETERSBURG\",\"state\":\"AK\",\"zip\":\"99833\"}",
  "latitude": "56.81069682100048",
  "longitude": "-132.9451077719997",
  "needsRecoding": "false"
}},
{
  "providerId": "640001",
  "name": "LBJ TROPICAL MEDICAL CENTER",
  "address": "FAGAALU VILLAGE",
  "city": "PAGO PAGO",
  "state": "AS",
  "zipCode": "96799",
  "phoneNumber": "6846334590",
  "type": "Acute Care Hospitals",
  "ownership": "Government - Hospital District or Authority",
  "emergencyServices": "true",
  "location": {
  "humanAddress": "{\"address\":\"FAGAALU VILLAGE\",\"city\":\"PAGO PAGO\",\"state\":\"AS\",\"zip\":\"96799\"}",
  "latitude": "0.0000019170004179613898",
  "longitude": "-0.0000012069995705132897",
  "needsRecoding": "false"
}},
{
  "providerId": "660001",
  "name": "COMMONWEALTH HEALTH CENTER",
  "address": "PO BOX 409CK, NAVY HILL ROAD",
  "city": "GARAPAN",
  "state": "MP",
  "zipCode": "96950",
  "phoneNumber": "6702348950",
  "type": "Acute Care Hospitals",
  "ownership": "Proprietary",
  "emergencyServices": "true",
  "location": {
  "humanAddress": "{\"address\":\"PO BOX 409CK, NAVY HILL ROAD\",\"city\":\"GARAPAN\",\"state\":\"MP\",\"zip\":\"96950\"}",
  "latitude": "0.0000019170004179613898",
  "longitude": "-0.0000012069995705132897",
  "needsRecoding": "false"
}}
]
